[
    {
        "name": "鎌倉消防署第１管区2号",
        "address": "由比ガ浜四丁目１０番３８号付近",
        "lat": "35.31044",
        "lng": "139.540248",
        "容量（立法メートル）": "40"
    },
    {
        "name": "鎌倉消防署第１管区3号",
        "address": "由比ガ浜四丁目７番１号付近",
        "lat": "35.30971",
        "lng": "139.543308",
        "容量（立法メートル）": "60"
    },
    {
        "name": "鎌倉消防署第２管区1号",
        "address": "材木座三丁目１６番９号付近",
        "lat": "35.309058",
        "lng": "139.5529",
        "容量（立法メートル）": "45"
    },
    {
        "name": "鎌倉消防署第２管区2号",
        "address": "材木座五丁目１３番３号付近",
        "lat": "35.307716",
        "lng": "139.551336",
        "容量（立法メートル）": "40"
    },
    {
        "name": "鎌倉消防署第２管区3号",
        "address": "材木座五丁目１０番４４号付近",
        "lat": "35.306794",
        "lng": "139.548771",
        "容量（立法メートル）": "40"
    },
    {
        "name": "鎌倉消防署第２管区5号",
        "address": "材木座五丁目１０番５号付近",
        "lat": "35.307564",
        "lng": "139.549441",
        "容量（立法メートル）": "45"
    },
    {
        "name": "鎌倉消防署第３管区1号",
        "address": "材木座二丁目１２番１７号付近",
        "lat": "35.309852",
        "lng": "139.55805",
        "容量（立法メートル）": "40"
    },
    {
        "name": "鎌倉消防署第３管区2号",
        "address": "材木座二丁目７番４１号付近",
        "lat": "35.31023",
        "lng": "139.553107",
        "容量（立法メートル）": "40"
    },
    {
        "name": "鎌倉消防署第３管区3号",
        "address": "材木座六丁目７番３１号付近",
        "lat": "35.305887",
        "lng": "139.552644",
        "容量（立法メートル）": "40"
    },
    {
        "name": "鎌倉消防署第３管区4号",
        "address": "材木座六丁目１９番１９号付近",
        "lat": "35.303023",
        "lng": "139.555251",
        "容量（立法メートル）": "45"
    },
    {
        "name": "鎌倉消防署第３管区6号",
        "address": "材木座二丁目９番１号付近",
        "lat": "35.308838",
        "lng": "139.554294",
        "容量（立法メートル）": "40"
    },
    {
        "name": "鎌倉消防署第３管区7号",
        "address": "材木座二丁目１６番付近",
        "lat": "35.308977",
        "lng": "139.556644",
        "容量（立法メートル）": "40"
    },
    {
        "name": "鎌倉消防署第４管区1号",
        "address": "大町二丁目４番２０号付近",
        "lat": "35.312852",
        "lng": "139.553281",
        "容量（立法メートル）": "40"
    },
    {
        "name": "鎌倉消防署第４管区2号",
        "address": "大町三丁目３番３１付近",
        "lat": "35.313017",
        "lng": "139.556742",
        "容量（立法メートル）": "50"
    },
    {
        "name": "鎌倉消防署第４管区3号",
        "address": "大町四丁目６番２５号付近",
        "lat": "35.311462",
        "lng": "139.560217",
        "容量（立法メートル）": "40"
    },
    {
        "name": "鎌倉消防署第５管区1号",
        "address": "大町三丁目５番２１号付近",
        "lat": "35.314739",
        "lng": "139.558537",
        "容量（立法メートル）": "40"
    },
    {
        "name": "鎌倉消防署第５管区2号",
        "address": "大町一丁目１１番１７号付近",
        "lat": "35.314977",
        "lng": "139.554162",
        "容量（立法メートル）": "40"
    },
    {
        "name": "鎌倉消防署第５管区3号",
        "address": "大町七丁目１５４１番４７号付近",
        "lat": "35.313977",
        "lng": "139.566046",
        "容量（立法メートル）": "40"
    },
    {
        "name": "鎌倉消防署第６管区1号",
        "address": "小町二丁目１９番２０号付近",
        "lat": "35.320633",
        "lng": "139.55495",
        "容量（立法メートル）": "40"
    },
    {
        "name": "鎌倉消防署第６管区2号",
        "address": "小町二丁目１４番４号付近",
        "lat": "35.320571",
        "lng": "139.553266",
        "容量（立法メートル）": "40"
    },
    {
        "name": "鎌倉消防署第６管区3号",
        "address": "小町一丁目１０番５号付近",
        "lat": "35.318584",
        "lng": "139.551916",
        "容量（立法メートル）": "40"
    },
    {
        "name": "鎌倉消防署第６管区4号",
        "address": "小町二丁目７番２４号付近",
        "lat": "35.322294",
        "lng": "139.552605",
        "容量（立法メートル）": "50"
    },
    {
        "name": "鎌倉消防署第７管区1号",
        "address": "御成町１７番２３号付近",
        "lat": "35.319644",
        "lng": "139.547075",
        "容量（立法メートル）": "40"
    },
    {
        "name": "鎌倉消防署第７管区2号",
        "address": "御成町２０番２１号付近",
        "lat": "35.316957",
        "lng": "139.546043",
        "容量（立法メートル）": "65"
    },
    {
        "name": "鎌倉消防署第７管区3号",
        "address": "御成町１９番１号付近",
        "lat": "35.318087",
        "lng": "139.546996",
        "容量（立法メートル）": "85"
    },
    {
        "name": "鎌倉消防署第８管区1号",
        "address": "笹目町６番４３号付近",
        "lat": "35.314612",
        "lng": "139.543266",
        "容量（立法メートル）": "50"
    },
    {
        "name": "鎌倉消防署第８管区2号",
        "address": "笹目町２番１号付近",
        "lat": "35.317493",
        "lng": "139.541468",
        "容量（立法メートル）": "40"
    },
    {
        "name": "鎌倉消防署第８管区3号",
        "address": "佐助二丁目１８番３号付近",
        "lat": "35.324689",
        "lng": "139.543536",
        "容量（立法メートル）": "40"
    },
    {
        "name": "鎌倉消防署第８管区4号",
        "address": "笹目町１１番５号付近",
        "lat": "35.317593",
        "lng": "139.540205",
        "容量（立法メートル）": "40"
    },
    {
        "name": "鎌倉消防署第８管区5号",
        "address": "佐助一丁目８番付近",
        "lat": "35.32079",
        "lng": "139.545154",
        "容量（立法メートル）": "40"
    },
    {
        "name": "鎌倉消防署第９管区1号",
        "address": "扇ガ谷一丁目９番１０号付近",
        "lat": "35.321973",
        "lng": "139.550261",
        "容量（立法メートル）": "40"
    },
    {
        "name": "鎌倉消防署第９管区2号",
        "address": "扇ガ谷一丁目１６番２号付近",
        "lat": "35.324768",
        "lng": "139.550247",
        "容量（立法メートル）": "40"
    },
    {
        "name": "鎌倉消防署第９管区3号",
        "address": "扇ガ谷四丁目１１番１４号付近",
        "lat": "35.325451",
        "lng": "139.545889",
        "容量（立法メートル）": "40"
    },
    {
        "name": "鎌倉消防署第９管区4号",
        "address": "扇ガ谷三丁目５番１号付近",
        "lat": "35.327553",
        "lng": "139.549582",
        "容量（立法メートル）": "40"
    },
    {
        "name": "腰越出張所第１管区1号",
        "address": "腰越四丁目６番９号付近",
        "lat": "35.312742",
        "lng": "139.49667",
        "容量（立法メートル）": "50"
    },
    {
        "name": "腰越出張所第１管区2号",
        "address": "腰越五丁目１６番５号付近",
        "lat": "35.313488",
        "lng": "139.494548",
        "容量（立法メートル）": "40"
    },
    {
        "name": "腰越出張所第１管区3号",
        "address": "腰越五丁目９番１７号付近",
        "lat": "35.313161",
        "lng": "139.493085",
        "容量（立法メートル）": "40"
    },
    {
        "name": "腰越出張所第１管区4号",
        "address": "腰越五丁目１１番１０号付近",
        "lat": "35.311055",
        "lng": "139.493575",
        "容量（立法メートル）": "45"
    },
    {
        "name": "腰越出張所第１管区6号",
        "address": "腰越五丁目１番１７号付近",
        "lat": "35.312115",
        "lng": "139.49127",
        "容量（立法メートル）": "40"
    },
    {
        "name": "腰越出張所第１管区7号",
        "address": "腰越三丁目９番２１号付近",
        "lat": "35.309082",
        "lng": "139.489774",
        "容量（立法メートル）": "50"
    },
    {
        "name": "腰越出張所第１管区8号",
        "address": "腰越三丁目４番１２号付近",
        "lat": "35.308624",
        "lng": "139.491168",
        "容量（立法メートル）": "45"
    },
    {
        "name": "腰越出張所第１管区9号",
        "address": "津西二丁目１１番１号付近",
        "lat": "35.316048",
        "lng": "139.49621",
        "容量（立法メートル）": "40"
    },
    {
        "name": "腰越出張所第１管区10号",
        "address": "津西二丁目１９番３号付近",
        "lat": "35.315052",
        "lng": "139.495982",
        "容量（立法メートル）": "40"
    },
    {
        "name": "腰越出張所第１管区11号",
        "address": "腰越五丁目７番１号付近",
        "lat": "35.312111",
        "lng": "139.492475",
        "容量（立法メートル）": "50"
    },
    {
        "name": "腰越出張所第２管区1号",
        "address": "腰越一丁目１６番２４号付近",
        "lat": "35.311269",
        "lng": "139.498864",
        "容量（立法メートル）": "40"
    },
    {
        "name": "腰越出張所第２管区2号",
        "address": "腰越二丁目１０番３１号付近",
        "lat": "35.307221",
        "lng": "139.494287",
        "容量（立法メートル）": "50"
    },
    {
        "name": "七里ガ浜出張所第１管区1号",
        "address": "七里ガ浜二丁目１２番７号付近",
        "lat": "35.308022",
        "lng": "139.507076",
        "容量（立法メートル）": "40"
    },
    {
        "name": "七里ガ浜出張所第１管区2号",
        "address": "七里ガ浜二丁目２番１号付近",
        "lat": "35.308092",
        "lng": "139.50945",
        "容量（立法メートル）": "40"
    },
    {
        "name": "七里ガ浜出張所第１管区3号",
        "address": "七里ガ浜一丁目２番２１号付近",
        "lat": "35.30597",
        "lng": "139.509506",
        "容量（立法メートル）": "40"
    },
    {
        "name": "腰越出張所第２管区6号",
        "address": "腰越二丁目１９番１８号付近",
        "lat": "35.308616",
        "lng": "139.495211",
        "容量（立法メートル）": "40"
    },
    {
        "name": "腰越出張所第２管区7号",
        "address": "腰越二丁目３４番３２号付近",
        "lat": "35.309444",
        "lng": "139.498218",
        "容量（立法メートル）": "40"
    },
    {
        "name": "七里ガ浜出張所第１管区4号",
        "address": "七里ガ浜一丁目１３番１７号付近",
        "lat": "35.309052",
        "lng": "139.510554",
        "容量（立法メートル）": "40"
    },
    {
        "name": "七里ガ浜出張所第１管区5号",
        "address": "七里ガ浜二丁目１８番１号付近",
        "lat": "35.307005",
        "lng": "139.504897",
        "容量（立法メートル）": "40"
    },
    {
        "name": "腰越出張所第２管区10号",
        "address": "腰越一丁目１番２１号付近",
        "lat": "35.306753",
        "lng": "139.501367",
        "容量（立法メートル）": "40"
    },
    {
        "name": "七里ガ浜出張所第２管区1号",
        "address": "七里ガ浜東二丁目３５番４号付近",
        "lat": "35.309146",
        "lng": "139.513509",
        "容量（立法メートル）": "40"
    },
    {
        "name": "七里ガ浜出張所第２管区2号",
        "address": "七里ガ浜東四丁目３４番１号付近",
        "lat": "35.313422",
        "lng": "139.517169",
        "容量（立法メートル）": "40"
    },
    {
        "name": "七里ガ浜出張所第２管区3号",
        "address": "七里ガ浜東三丁目１３番１２号付近",
        "lat": "35.31172",
        "lng": "139.5186",
        "容量（立法メートル）": "40"
    },
    {
        "name": "七里ガ浜出張所第２管区4号",
        "address": "七里ガ浜東五丁目１３番１３号付近",
        "lat": "35.315686",
        "lng": "139.520794",
        "容量（立法メートル）": "40"
    },
    {
        "name": "七里ガ浜出張所第２管区5号",
        "address": "七里ガ浜東五丁目８番２６号付近",
        "lat": "35.312788",
        "lng": "139.514573",
        "容量（立法メートル）": "40"
    },
    {
        "name": "七里ガ浜出張所第３管区4号",
        "address": "稲村ガ崎五丁目３９番１８号付近",
        "lat": "35.31332",
        "lng": "139.5218",
        "容量（立法メートル）": "40"
    },
    {
        "name": "腰越出張所第４管区1号",
        "address": "津１０５０番地９１付近",
        "lat": "35.320906",
        "lng": "139.507776",
        "容量（立法メートル）": "40"
    },
    {
        "name": "腰越出張所第４管区2号",
        "address": "腰越１３３０番地４９付近",
        "lat": "35.32083",
        "lng": "139.508987",
        "容量（立法メートル）": "40"
    },
    {
        "name": "腰越出張所第４管区3号",
        "address": "腰越１５６０番地４７付近",
        "lat": "35.318606",
        "lng": "139.508549",
        "容量（立法メートル）": "40"
    },
    {
        "name": "腰越出張所第４管区4号",
        "address": "腰越１５２５番地１７付近",
        "lat": "35.318563",
        "lng": "139.511139",
        "容量（立法メートル）": "40"
    },
    {
        "name": "腰越出張所第４管区5号",
        "address": "腰越１５３１番地２１付近",
        "lat": "35.319108",
        "lng": "139.513055",
        "容量（立法メートル）": "40"
    },
    {
        "name": "腰越出張所第４管区6号",
        "address": "津１０６９番地２６３付近",
        "lat": "35.322204",
        "lng": "139.510088",
        "容量（立法メートル）": "40"
    },
    {
        "name": "腰越出張所第４管区7号",
        "address": "腰越１４１６番地７付近",
        "lat": "35.322005",
        "lng": "139.511203",
        "容量（立法メートル）": "40"
    },
    {
        "name": "腰越出張所第５管区1号",
        "address": "西鎌倉一丁目２０番２２号付近",
        "lat": "35.319833",
        "lng": "139.505518",
        "容量（立法メートル）": "40"
    },
    {
        "name": "腰越出張所第５管区2号",
        "address": "西鎌倉二丁目１７番付近",
        "lat": "35.324806",
        "lng": "139.50367",
        "容量（立法メートル）": "40"
    },
    {
        "name": "腰越出張所第５管区3号",
        "address": "西鎌倉三丁目５番付近",
        "lat": "35.319482",
        "lng": "139.498926",
        "容量（立法メートル）": "40"
    },
    {
        "name": "腰越出張所第５管区4号",
        "address": "西鎌倉四丁目２０番付近",
        "lat": "35.317346",
        "lng": "139.496722",
        "容量（立法メートル）": "40"
    },
    {
        "name": "腰越出張所第５管区5号",
        "address": "腰越１０６９番地２１２付近",
        "lat": "35.32292",
        "lng": "139.507188",
        "容量（立法メートル）": "40"
    },
    {
        "name": "腰越出張所第５管区6号",
        "address": "手広７０３番地９９付近",
        "lat": "35.323267",
        "lng": "139.509622",
        "容量（立法メートル）": "40"
    },
    {
        "name": "腰越出張所第６管区1号",
        "address": "津６８６番地１付近",
        "lat": "35.315072",
        "lng": "139.502134",
        "容量（立法メートル）": "40"
    },
    {
        "name": "腰越出張所第６管区2号",
        "address": "腰越１６７７番地付近",
        "lat": "35.314818",
        "lng": "139.505323",
        "容量（立法メートル）": "40"
    },
    {
        "name": "腰越出張所第６管区3号",
        "address": "津１０３６番地付近",
        "lat": "35.31754",
        "lng": "139.505427",
        "容量（立法メートル）": "40"
    },
    {
        "name": "腰越出張所第６管区4号",
        "address": "腰越１７１８番地付近",
        "lat": "35.315485",
        "lng": "139.507806",
        "容量（立法メートル）": "40"
    },
    {
        "name": "腰越出張所第６管区5号",
        "address": "腰越１７２２番地４付近",
        "lat": "35.315712",
        "lng": "139.509724",
        "容量（立法メートル）": "40"
    },
    {
        "name": "腰越出張所第６管区6号",
        "address": "津５１５番地４４付近",
        "lat": "35.310073",
        "lng": "139.501282",
        "容量（立法メートル）": "40"
    },
    {
        "name": "腰越出張所第６管区7号",
        "address": "津６０２番地１３６付近",
        "lat": "35.311757",
        "lng": "139.50484",
        "容量（立法メートル）": "40"
    },
    {
        "name": "腰越出張所第６管区8号",
        "address": "津西一丁目１６番２２号付近",
        "lat": "35.319102",
        "lng": "139.501597",
        "容量（立法メートル）": "40"
    },
    {
        "name": "腰越出張所第６管区9号",
        "address": "津西一丁目１４番１１号付近",
        "lat": "35.317307",
        "lng": "139.500472",
        "容量（立法メートル）": "40"
    },
    {
        "name": "腰越出張所第６管区10号",
        "address": "腰越８６４番地付近",
        "lat": "35.313718",
        "lng": "139.500914",
        "容量（立法メートル）": "60"
    },
    {
        "name": "腰越出張所第６管区11号",
        "address": "津７７３番地付近",
        "lat": "35.3087",
        "lng": "139.501793",
        "容量（立法メートル）": "50"
    },
    {
        "name": "深沢出張所第１管区1号",
        "address": "梶原一丁目１１番１号付近",
        "lat": "35.330913",
        "lng": "139.520052",
        "容量（立法メートル）": "45"
    },
    {
        "name": "深沢出張所第１管区2号",
        "address": "梶原一丁目９番２号付近",
        "lat": "35.332518",
        "lng": "139.519754",
        "容量（立法メートル）": "40"
    },
    {
        "name": "深沢出張所第１管区3号",
        "address": "梶原一丁目４番７号付近",
        "lat": "35.333241",
        "lng": "139.519409",
        "容量（立法メートル）": "50"
    },
    {
        "name": "深沢出張所第１管区4号",
        "address": "寺分一丁目５番２号付近",
        "lat": "35.33333",
        "lng": "139.521681",
        "容量（立法メートル）": "40"
    },
    {
        "name": "深沢出張所第１管区5号",
        "address": "寺分一丁目１９番１号付近",
        "lat": "35.334539",
        "lng": "139.523252",
        "容量（立法メートル）": "40"
    },
    {
        "name": "深沢出張所第１管区6号",
        "address": "寺分二丁目２９番２付近",
        "lat": "35.337802",
        "lng": "139.52484",
        "容量（立法メートル）": "40"
    },
    {
        "name": "深沢出張所第１管区7号",
        "address": "寺分三丁目２４番９号付近",
        "lat": "35.332947",
        "lng": "139.526689",
        "容量（立法メートル）": "40"
    },
    {
        "name": "深沢出張所第１管区8号",
        "address": "常盤１１１番地３号付近",
        "lat": "35.33133",
        "lng": "139.518605",
        "容量（立法メートル）": "50"
    },
    {
        "name": "深沢出張所第１管区9号",
        "address": "寺分三丁目３０番８付近",
        "lat": "35.333737",
        "lng": "139.528508",
        "容量（立法メートル）": "40"
    },
    {
        "name": "深沢出張所第１管区10号",
        "address": "常盤２８３番地付近",
        "lat": "35.328109",
        "lng": "139.523245",
        "容量（立法メートル）": "40"
    },
    {
        "name": "深沢出張所第１管区11号",
        "address": "常盤２４１番３号付近",
        "lat": "35.328959",
        "lng": "139.522361",
        "容量（立法メートル）": "40"
    },
    {
        "name": "深沢出張所第１管区12号",
        "address": "梶原一丁目１７番２１号付近",
        "lat": "35.328636",
        "lng": "139.524639",
        "容量（立法メートル）": "40"
    },
    {
        "name": "深沢出張所第１管区13号",
        "address": "梶原一丁目２０番２号付近",
        "lat": "35.327786",
        "lng": "139.52535",
        "容量（立法メートル）": "40"
    },
    {
        "name": "深沢出張所第１管区14号",
        "address": "梶原一丁目１５番３０号付近",
        "lat": "35.329482",
        "lng": "139.523744",
        "容量（立法メートル）": "40"
    },
    {
        "name": "深沢出張所第１管区15号",
        "address": "寺分一丁目２４番２９号付近",
        "lat": "35.335635",
        "lng": "139.52394",
        "容量（立法メートル）": "40"
    },
    {
        "name": "深沢出張所第２管区1号",
        "address": "寺分４８５番地１付近",
        "lat": "35.335418",
        "lng": "139.52152",
        "容量（立法メートル）": "40"
    },
    {
        "name": "深沢出張所第２管区2号",
        "address": "上町屋６５９番地付近",
        "lat": "35.337921",
        "lng": "139.516706",
        "容量（立法メートル）": "40"
    },
    {
        "name": "深沢出張所第２管区3号",
        "address": "寺分４３６番地付近",
        "lat": "35.334669",
        "lng": "139.520261",
        "容量（立法メートル）": "40"
    },
    {
        "name": "深沢出張所第２管区4号",
        "address": "笛田一丁目１１番３４号付近",
        "lat": "35.332698",
        "lng": "139.507484",
        "容量（立法メートル）": "40"
    },
    {
        "name": "深沢出張所第３管区1号",
        "address": "手広二丁目２７番１号付近",
        "lat": "35.326073",
        "lng": "139.508639",
        "容量（立法メートル）": "50"
    },
    {
        "name": "深沢出張所第３管区2号",
        "address": "手広四丁目６番付近",
        "lat": "35.327713",
        "lng": "139.50742",
        "容量（立法メートル）": "40"
    },
    {
        "name": "深沢出張所第３管区3号",
        "address": "手広二丁目２３番付近",
        "lat": "35.326826",
        "lng": "139.511966",
        "容量（立法メートル）": "40"
    },
    {
        "name": "深沢出張所第３管区4号",
        "address": "手広二丁目７番付近",
        "lat": "35.328171",
        "lng": "139.513531",
        "容量（立法メートル）": "40"
    },
    {
        "name": "深沢出張所第３管区5号",
        "address": "手広四丁目１３番付近",
        "lat": "35.326856",
        "lng": "139.506565",
        "容量（立法メートル）": "40"
    },
    {
        "name": "深沢出張所第３管区6号",
        "address": "手広四丁目３５番付近",
        "lat": "35.327869",
        "lng": "139.504123",
        "容量（立法メートル）": "40"
    },
    {
        "name": "腰越出張所第３管区5号",
        "address": "鎌倉山四丁目１２番１３号付近",
        "lat": "35.323094",
        "lng": "139.512864",
        "容量（立法メートル）": "40"
    },
    {
        "name": "深沢出張所第３管区8号",
        "address": "手広一丁目８番３９号付近",
        "lat": "35.329187",
        "lng": "139.510377",
        "容量（立法メートル）": "40"
    },
    {
        "name": "深沢出張所第３管区9号",
        "address": "手広四丁目２番１０号付近",
        "lat": "35.328812",
        "lng": "139.507987",
        "容量（立法メートル）": "40"
    },
    {
        "name": "深沢出張所第４管区1号",
        "address": "笛田四丁目５番１号付近",
        "lat": "35.327191",
        "lng": "139.522632",
        "容量（立法メートル）": "40"
    },
    {
        "name": "深沢出張所第４管区2号",
        "address": "笛田四丁目１６番１号付近",
        "lat": "35.325524",
        "lng": "139.52148",
        "容量（立法メートル）": "40"
    },
    {
        "name": "深沢出張所第４管区3号",
        "address": "笛田四丁目３番２号付近",
        "lat": "35.324678",
        "lng": "139.523577",
        "容量（立法メートル）": "40"
    },
    {
        "name": "深沢出張所第４管区4号",
        "address": "笛田三丁目２９番２２号付近",
        "lat": "35.324547",
        "lng": "139.519674",
        "容量（立法メートル）": "40"
    },
    {
        "name": "深沢出張所第４管区5号",
        "address": "笛田二丁目１７番１号付近",
        "lat": "35.3243581",
        "lng": "139.5159966",
        "容量（立法メートル）": "40"
    },
    {
        "name": "深沢出張所第４管区6号",
        "address": "笛田二丁目２５番４号付近",
        "lat": "35.321725",
        "lng": "139.515154",
        "容量（立法メートル）": "40"
    },
    {
        "name": "深沢出張所第４管区7号",
        "address": "笛田二丁目１９番１号付近",
        "lat": "35.323075",
        "lng": "139.516387",
        "容量（立法メートル）": "40"
    },
    {
        "name": "深沢出張所第４管区8号",
        "address": "笛田三丁目３５番１号付近",
        "lat": "35.322653",
        "lng": "139.518064",
        "容量（立法メートル）": "40"
    },
    {
        "name": "深沢出張所第４管区9号",
        "address": "笛田三丁目１３番１号付近",
        "lat": "35.327973",
        "lng": "139.519508",
        "容量（立法メートル）": "50"
    },
    {
        "name": "深沢出張所第４管区10号",
        "address": "笛田三丁目３０番１号付近",
        "lat": "35.322115",
        "lng": "139.521568",
        "容量（立法メートル）": "40"
    },
    {
        "name": "深沢出張所第４管区11号",
        "address": "笛田三丁目１８番１号付近",
        "lat": "35.328172",
        "lng": "139.519907",
        "容量（立法メートル）": "40"
    },
    {
        "name": "深沢出張所第４管区12号",
        "address": "笛田三丁目３７番１号付近",
        "lat": "35.322391",
        "lng": "139.519653",
        "容量（立法メートル）": "40"
    },
    {
        "name": "深沢出張所第４管区13号",
        "address": "笛田三丁目３５番２８号付近",
        "lat": "35.323853",
        "lng": "139.518151",
        "容量（立法メートル）": "40"
    },
    {
        "name": "深沢出張所第５管区1号",
        "address": "常盤６２７番地３付近",
        "lat": "35.321936",
        "lng": "139.527982",
        "容量（立法メートル）": "40"
    },
    {
        "name": "深沢出張所第５管区2号",
        "address": "笛田五丁目４６番８号付近",
        "lat": "35.317889",
        "lng": "139.526831",
        "容量（立法メートル）": "40"
    },
    {
        "name": "深沢出張所第５管区3号",
        "address": "笛田五丁目１７番１４号付近",
        "lat": "35.321409",
        "lng": "139.525145",
        "容量（立法メートル）": "40"
    },
    {
        "name": "深沢出張所第５管区4号",
        "address": "笛田五丁目３１番２号付近",
        "lat": "35.319792",
        "lng": "139.523868",
        "容量（立法メートル）": "40"
    },
    {
        "name": "腰越出張所第３管区1号",
        "address": "鎌倉山一丁目１１番１３号付近",
        "lat": "35.319799",
        "lng": "139.520122",
        "容量（立法メートル）": "40"
    },
    {
        "name": "腰越出張所第３管区2号",
        "address": "鎌倉山二丁目１３番３号付近",
        "lat": "35.316559",
        "lng": "139.515367",
        "容量（立法メートル）": "50"
    },
    {
        "name": "深沢出張所第５管区7号",
        "address": "笛田五丁目３４番１６号付近",
        "lat": "35.321029",
        "lng": "139.526993",
        "容量（立法メートル）": "40"
    },
    {
        "name": "腰越出張所第３管区3号",
        "address": "鎌倉山二丁目１１番５号付近",
        "lat": "35.317559",
        "lng": "139.515655",
        "容量（立法メートル）": "40"
    },
    {
        "name": "深沢出張所第６管区1号",
        "address": "梶原四丁目１番６号付近",
        "lat": "35.327032",
        "lng": "139.524606",
        "容量（立法メートル）": "40"
    },
    {
        "name": "深沢出張所第６管区2号",
        "address": "梶原四丁目５番３号付近",
        "lat": "35.32766",
        "lng": "139.530376",
        "容量（立法メートル）": "20"
    },
    {
        "name": "深沢出張所第６管区3号",
        "address": "梶原五丁目２番１号付近",
        "lat": "35.327414",
        "lng": "139.53575",
        "容量（立法メートル）": "40"
    },
    {
        "name": "深沢出張所第６管区4号",
        "address": "梶原五丁目２番１号付近",
        "lat": "35.326401",
        "lng": "139.536713",
        "容量（立法メートル）": "40"
    },
    {
        "name": "深沢出張所第６管区5号",
        "address": "梶原五丁目２番１号付近",
        "lat": "35.327235",
        "lng": "139.537117",
        "容量（立法メートル）": "40"
    },
    {
        "name": "深沢出張所第６管区6号",
        "address": "梶原五丁目２番１号付近",
        "lat": "35.328072",
        "lng": "139.538657",
        "容量（立法メートル）": "40"
    },
    {
        "name": "深沢出張所第６管区7号",
        "address": "梶原三丁目２３番付近",
        "lat": "35.331392",
        "lng": "139.535332",
        "容量（立法メートル）": "40"
    },
    {
        "name": "深沢出張所第６管区8号",
        "address": "梶原五丁目９番１号付近",
        "lat": "35.32841",
        "lng": "139.543151",
        "容量（立法メートル）": "40"
    },
    {
        "name": "深沢出張所第６管区9号",
        "address": "梶原四丁目２番６号付近",
        "lat": "35.327593",
        "lng": "139.527595",
        "容量（立法メートル）": "40"
    },
    {
        "name": "鎌倉消防署第１０管区1号",
        "address": "長谷四丁目１番１７号付近",
        "lat": "35.317219",
        "lng": "139.537584",
        "容量（立法メートル）": "40"
    },
    {
        "name": "鎌倉消防署第１０管区2号",
        "address": "長谷一丁目８番１号付近",
        "lat": "35.313626",
        "lng": "139.539782",
        "容量（立法メートル）": "40"
    },
    {
        "name": "鎌倉消防署第１０管区3号",
        "address": "長谷一丁目１１番４０号付近",
        "lat": "35.314012",
        "lng": "139.537841",
        "容量（立法メートル）": "40"
    },
    {
        "name": "鎌倉消防署第１０管区4号",
        "address": "長谷一丁目５番３号付近",
        "lat": "35.315221",
        "lng": "139.539062",
        "容量（立法メートル）": "40"
    },
    {
        "name": "鎌倉消防署第１１管区1号",
        "address": "長谷二丁目５番３０号付近",
        "lat": "35.312392",
        "lng": "139.537926",
        "容量（立法メートル）": "40"
    },
    {
        "name": "鎌倉消防署第１１管区2号",
        "address": "坂ノ下９番１５号付近",
        "lat": "35.310865",
        "lng": "139.534942",
        "容量（立法メートル）": "40"
    },
    {
        "name": "鎌倉消防署第１１管区3号",
        "address": "坂ノ下１８番５号付近",
        "lat": "35.310341",
        "lng": "139.533506",
        "容量（立法メートル）": "40"
    },
    {
        "name": "七里ガ浜出張所第４管区1号",
        "address": "極楽寺三丁目２番３号付近",
        "lat": "35.311342",
        "lng": "139.528385",
        "容量（立法メートル）": "40"
    },
    {
        "name": "七里ガ浜出張所第４管区2号",
        "address": "極楽寺三丁目２番３号付近",
        "lat": "35.31038",
        "lng": "139.527559",
        "容量（立法メートル）": "21"
    },
    {
        "name": "七里ガ浜出張所第４管区3号",
        "address": "極楽寺三丁目７番２１号付近",
        "lat": "35.307938",
        "lng": "139.527569",
        "容量（立法メートル）": "40"
    },
    {
        "name": "七里ガ浜出張所第４管区4号",
        "address": "極楽寺一丁目１１番１９号付近",
        "lat": "35.30598",
        "lng": "139.530546",
        "容量（立法メートル）": "40"
    },
    {
        "name": "七里ガ浜出張所第３管区1号",
        "address": "稲村ガ崎三丁目１０番１８号付近",
        "lat": "35.304488",
        "lng": "139.518864",
        "容量（立法メートル）": "40"
    },
    {
        "name": "七里ガ浜出張所第３管区2号",
        "address": "稲村ガ崎二丁目１番２２号付近",
        "lat": "35.305447",
        "lng": "139.524791",
        "容量（立法メートル）": "40"
    },
    {
        "name": "七里ガ浜出張所第３管区3号",
        "address": "稲村ガ崎四丁目１０番４５号付近",
        "lat": "35.308547",
        "lng": "139.520743",
        "容量（立法メートル）": "40"
    },
    {
        "name": "浄明寺出張所第１管区1号",
        "address": "浄明寺六丁目１７番１号付近",
        "lat": "35.313337",
        "lng": "139.570111",
        "容量（立法メートル）": "40"
    },
    {
        "name": "浄明寺出張所第１管区2号",
        "address": "十二所９６７番地付近",
        "lat": "35.316563",
        "lng": "139.577686",
        "容量（立法メートル）": "40"
    },
    {
        "name": "浄明寺出張所第１管区3号",
        "address": "浄明寺六丁目１９番３１号付近",
        "lat": "35.311926",
        "lng": "139.56883",
        "容量（立法メートル）": "40"
    },
    {
        "name": "浄明寺出張所第１管区4号",
        "address": "浄明寺六丁目２番７号付近",
        "lat": "35.316745",
        "lng": "139.57662",
        "容量（立法メートル）": "40"
    },
    {
        "name": "浄明寺出張所第２管区1号",
        "address": "十二所８番地付近",
        "lat": "35.3195",
        "lng": "139.57667",
        "容量（立法メートル）": "40"
    },
    {
        "name": "浄明寺出張所第３管区1号",
        "address": "二階堂１９番地付近",
        "lat": "35.324206",
        "lng": "139.563768",
        "容量（立法メートル）": "40"
    },
    {
        "name": "浄明寺出張所第３管区2号",
        "address": "二階堂８７８番地付近",
        "lat": "35.323063",
        "lng": "139.565279",
        "容量（立法メートル）": "50"
    },
    {
        "name": "浄明寺出張所第３管区3号",
        "address": "二階堂１５４番地付近",
        "lat": "35.32557",
        "lng": "139.566222",
        "容量（立法メートル）": "40"
    },
    {
        "name": "浄明寺出張所第３管区4号",
        "address": "二階堂４２１番地付近",
        "lat": "35.331363",
        "lng": "139.563917",
        "容量（立法メートル）": "40"
    },
    {
        "name": "浄明寺出張所第３管区5号",
        "address": "二階堂７７３番地付近",
        "lat": "35.325022",
        "lng": "139.570838",
        "容量（立法メートル）": "45"
    },
    {
        "name": "浄明寺出張所第３管区6号",
        "address": "二階堂６８１番地付近",
        "lat": "35.32747",
        "lng": "139.571229",
        "容量（立法メートル）": "40"
    },
    {
        "name": "浄明寺出張所第３管区7号",
        "address": "二階堂２６７番地付近",
        "lat": "35.329597",
        "lng": "139.567276",
        "容量（立法メートル）": "40"
    },
    {
        "name": "浄明寺出張所第３管区8号",
        "address": "二階堂７７３番地７８付近",
        "lat": "35.325885",
        "lng": "139.571161",
        "容量（立法メートル）": "40"
    },
    {
        "name": "浄明寺出張所第３管区9号",
        "address": "二階堂４３番地付近",
        "lat": "35.324116",
        "lng": "139.562944",
        "容量（立法メートル）": "40"
    },
    {
        "name": "浄明寺出張所第３管区10号",
        "address": "二階堂２６７番地９７付近",
        "lat": "35.331148",
        "lng": "139.565204",
        "容量（立法メートル）": "40"
    },
    {
        "name": "浄明寺出張所第４管区1号",
        "address": "浄明寺三丁目７番１６号付近",
        "lat": "35.322226",
        "lng": "139.570878",
        "容量（立法メートル）": "40"
    },
    {
        "name": "浄明寺出張所第４管区2号",
        "address": "浄明寺四丁目２１番１４号付近",
        "lat": "35.325055",
        "lng": "139.574587",
        "容量（立法メートル）": "40"
    },
    {
        "name": "浄明寺出張所第４管区3号",
        "address": "浄明寺四丁目１２番２号付近",
        "lat": "35.323702",
        "lng": "139.574894",
        "容量（立法メートル）": "40"
    },
    {
        "name": "浄明寺出張所第５管区1号",
        "address": "浄明寺一丁目８番１７号付近",
        "lat": "35.319228",
        "lng": "139.564098",
        "容量（立法メートル）": "40"
    },
    {
        "name": "浄明寺出張所第５管区2号",
        "address": "浄明寺二丁目７番４号付近",
        "lat": "35.319825",
        "lng": "139.569728",
        "容量（立法メートル）": "40"
    },
    {
        "name": "浄明寺出張所第５管区3号",
        "address": "浄明寺五丁目１１番１１号付近",
        "lat": "35.316664",
        "lng": "139.574609",
        "容量（立法メートル）": "40"
    },
    {
        "name": "浄明寺出張所第６管区1号",
        "address": "西御門一丁目５番１８号付近",
        "lat": "35.326845",
        "lng": "139.559978",
        "容量（立法メートル）": "50"
    },
    {
        "name": "浄明寺出張所第６管区2号",
        "address": "西御門一丁目７番１号付近",
        "lat": "35.327923",
        "lng": "139.559352",
        "容量（立法メートル）": "40"
    },
    {
        "name": "浄明寺出張所第６管区3号",
        "address": "雪ノ下三丁目１１番４５号付近",
        "lat": "35.324451",
        "lng": "139.56126",
        "容量（立法メートル）": "50"
    },
    {
        "name": "浄明寺出張所第６管区4号",
        "address": "西御門二丁目１３番１３号付近",
        "lat": "35.328087",
        "lng": "139.56205",
        "容量（立法メートル）": "40"
    },
    {
        "name": "浄明寺出張所第７管区1号",
        "address": "小町三丁目５番２２号付近",
        "lat": "35.322422",
        "lng": "139.557567",
        "容量（立法メートル）": "40"
    },
    {
        "name": "浄明寺出張所第７管区2号",
        "address": "小町三丁目１２番４号付近",
        "lat": "35.320991",
        "lng": "139.557803",
        "容量（立法メートル）": "60"
    },
    {
        "name": "大船消防署第１管区1号",
        "address": "山ノ内５３５番地付近",
        "lat": "35.339524",
        "lng": "139.543704",
        "容量（立法メートル）": "40"
    },
    {
        "name": "大船消防署第２管区1号",
        "address": "山ノ内９６７番地付近",
        "lat": "35.33561",
        "lng": "139.542736",
        "容量（立法メートル）": "40"
    },
    {
        "name": "大船消防署第２管区2号",
        "address": "山ノ内１４２９番地付近",
        "lat": "35.333952",
        "lng": "139.547486",
        "容量（立法メートル）": "40"
    },
    {
        "name": "大船消防署第３管区1号",
        "address": "小袋谷二丁目１４番４１号付近",
        "lat": "35.345461",
        "lng": "139.535975",
        "容量（立法メートル）": "40"
    },
    {
        "name": "大船消防署第４管区1号",
        "address": "大船一丁目２２番２８号付近",
        "lat": "35.352273",
        "lng": "139.532069",
        "容量（立法メートル）": "50"
    },
    {
        "name": "大船消防署第４管区2号",
        "address": "大船二丁目１７番４７号付近",
        "lat": "35.353123",
        "lng": "139.534045",
        "容量（立法メートル）": "50"
    },
    {
        "name": "大船消防署第４管区3号",
        "address": "大船二丁目８番１付近",
        "lat": "35.351705",
        "lng": "139.534611",
        "容量（立法メートル）": "50"
    },
    {
        "name": "大船消防署第４管区4号",
        "address": "大船二丁目１番３４号付近",
        "lat": "35.350818",
        "lng": "139.533267",
        "容量（立法メートル）": "40"
    },
    {
        "name": "大船消防署第４管区5号",
        "address": "大船一丁目４番１号付近",
        "lat": "35.352246",
        "lng": "139.531501",
        "容量（立法メートル）": "60"
    },
    {
        "name": "大船消防署第５管区1号",
        "address": "大船四丁目６番１６号付近",
        "lat": "35.346325",
        "lng": "139.538305",
        "容量（立法メートル）": "50"
    },
    {
        "name": "大船消防署第５管区2号",
        "address": "大船五丁目８番２６号付近",
        "lat": "35.347573",
        "lng": "139.540286",
        "容量（立法メートル）": "40"
    },
    {
        "name": "大船消防署第５管区3号",
        "address": "大船六丁目１０番１２号付近",
        "lat": "35.352334",
        "lng": "139.541764",
        "容量（立法メートル）": "40"
    },
    {
        "name": "大船消防署第５管区4号",
        "address": "大船五丁目１５番２５号付近",
        "lat": "35.348761",
        "lng": "139.541361",
        "容量（立法メートル）": "40"
    },
    {
        "name": "大船消防署第５管区5号",
        "address": "大船六丁目１番２号付近",
        "lat": "35.352996",
        "lng": "139.53783",
        "容量（立法メートル）": "40"
    },
    {
        "name": "大船消防署第６管区1号",
        "address": "大船１２９９番９付近",
        "lat": "35.34636",
        "lng": "139.542252",
        "容量（立法メートル）": "27"
    },
    {
        "name": "大船消防署第６管区2号",
        "address": "大船１８２０番７５付近",
        "lat": "35.350238",
        "lng": "139.545832",
        "容量（立法メートル）": "40"
    },
    {
        "name": "大船消防署第６管区3号",
        "address": "高野６番２付近",
        "lat": "35.343107",
        "lng": "139.54398",
        "容量（立法メートル）": "40"
    },
    {
        "name": "大船消防署第６管区4号",
        "address": "高野９番９付近",
        "lat": "35.344185",
        "lng": "139.547265",
        "容量（立法メートル）": "40"
    },
    {
        "name": "大船消防署第６管区5号",
        "address": "高野１６番１０付近",
        "lat": "35.345311",
        "lng": "139.548842",
        "容量（立法メートル）": "40"
    },
    {
        "name": "大船消防署第６管区6号",
        "address": "高野２６番２０付近",
        "lat": "35.342534",
        "lng": "139.546691",
        "容量（立法メートル）": "40"
    },
    {
        "name": "大船消防署第６管区7号",
        "address": "台１９８０番６０付近",
        "lat": "35.342632",
        "lng": "139.542659",
        "容量（立法メートル）": "40"
    },
    {
        "name": "大船消防署第６管区8号",
        "address": "高野３８番１８付近",
        "lat": "35.340961",
        "lng": "139.547078",
        "容量（立法メートル）": "60"
    },
    {
        "name": "大船消防署第６管区9号",
        "address": "高野３８番１０付近",
        "lat": "35.341118",
        "lng": "139.548354",
        "容量（立法メートル）": "60"
    },
    {
        "name": "大船消防署第６管区10号",
        "address": "大船２０２８番地付近",
        "lat": "35.346574",
        "lng": "139.544496",
        "容量（立法メートル）": "40"
    },
    {
        "name": "大船消防署第６管区12号",
        "address": "大船２０６１番地付近",
        "lat": "35.346259",
        "lng": "139.545228",
        "容量（立法メートル）": "40"
    },
    {
        "name": "玉縄出張所第１管区1号",
        "address": "岡本二丁目６番２５号付近",
        "lat": "35.35361",
        "lng": "139.525243",
        "容量（立法メートル）": "40"
    },
    {
        "name": "玉縄出張所第１管区2号",
        "address": "玉縄五丁目３番地２７付近",
        "lat": "35.358037",
        "lng": "139.517958",
        "容量（立法メートル）": "40"
    },
    {
        "name": "玉縄出張所第１管区3号",
        "address": "玉縄五丁目２４番地２付近",
        "lat": "35.360683",
        "lng": "139.52126",
        "容量（立法メートル）": "40"
    },
    {
        "name": "玉縄出張所第２管区1号",
        "address": "岡本一丁目１７番１号付近",
        "lat": "35.356407",
        "lng": "139.528205",
        "容量（立法メートル）": "40"
    },
    {
        "name": "玉縄出張所第２管区2号",
        "address": "岡本１５００番地１０３付近",
        "lat": "35.344929",
        "lng": "139.516899",
        "容量（立法メートル）": "40"
    },
    {
        "name": "玉縄出張所第２管区3号",
        "address": "岡本１５００番地７７付近",
        "lat": "35.344341",
        "lng": "139.516228",
        "容量（立法メートル）": "40"
    },
    {
        "name": "玉縄出張所第３管区1号",
        "address": "植木４９４番地付近",
        "lat": "35.350667",
        "lng": "139.510164",
        "容量（立法メートル）": "40"
    },
    {
        "name": "玉縄出張所第３管区2号",
        "address": "植木３７０番地１付近",
        "lat": "35.351055",
        "lng": "139.513647",
        "容量（立法メートル）": "40"
    },
    {
        "name": "玉縄出張所第３管区3号",
        "address": "植木９８番地１付近",
        "lat": "35.352899",
        "lng": "139.518179",
        "容量（立法メートル）": "40"
    },
    {
        "name": "玉縄出張所第３管区4号",
        "address": "植木１番地付近",
        "lat": "35.353876",
        "lng": "139.518347",
        "容量（立法メートル）": "60"
    },
    {
        "name": "玉縄出張所第３管区5号",
        "address": "植木６６３番地１４付近",
        "lat": "35.348291",
        "lng": "139.511526",
        "容量（立法メートル）": "40"
    },
    {
        "name": "玉縄出張所第３管区6号",
        "address": "植木８４２番地付近",
        "lat": "35.345975",
        "lng": "139.509977",
        "容量（立法メートル）": "50"
    },
    {
        "name": "玉縄出張所第３管区7号",
        "address": "植木６２５番地付近",
        "lat": "35.347771",
        "lng": "139.51405",
        "容量（立法メートル）": "40"
    },
    {
        "name": "玉縄出張所第３管区8号",
        "address": "植木４８４番地付近",
        "lat": "35.350802",
        "lng": "139.510685",
        "容量（立法メートル）": "40"
    },
    {
        "name": "玉縄出張所第４管区1号",
        "address": "城廻４０番地付近",
        "lat": "35.357936",
        "lng": "139.514068",
        "容量（立法メートル）": "40"
    },
    {
        "name": "玉縄出張所第４管区2号",
        "address": "城廻３９４番地１７付近",
        "lat": "35.35285",
        "lng": "139.510606",
        "容量（立法メートル）": "40"
    },
    {
        "name": "玉縄出張所第４管区3号",
        "address": "城廻４２３番地１０３付近",
        "lat": "35.35328",
        "lng": "139.505777",
        "容量（立法メートル）": "40"
    },
    {
        "name": "玉縄出張所第４管区4号",
        "address": "城廻４８１番地３２付近",
        "lat": "35.355506",
        "lng": "139.505915",
        "容量（立法メートル）": "40"
    },
    {
        "name": "玉縄出張所第４管区5号",
        "address": "城廻３７６番地４付近",
        "lat": "35.354748",
        "lng": "139.50996",
        "容量（立法メートル）": "40"
    },
    {
        "name": "玉縄出張所第４管区6号",
        "address": "城廻１００番地付近",
        "lat": "35.356503",
        "lng": "139.512362",
        "容量（立法メートル）": "40"
    },
    {
        "name": "玉縄出張所第４管区7号",
        "address": "城廻３６０番地付近",
        "lat": "35.353534",
        "lng": "139.511575",
        "容量（立法メートル）": "40"
    },
    {
        "name": "玉縄出張所第４管区8号",
        "address": "城廻６８２番地付近",
        "lat": "35.353014",
        "lng": "139.509055",
        "容量（立法メートル）": "40"
    },
    {
        "name": "玉縄出張所第４管区9号",
        "address": "城廻３４１番地付近",
        "lat": "35.352178",
        "lng": "139.511619",
        "容量（立法メートル）": "40"
    },
    {
        "name": "玉縄出張所第４管区10号",
        "address": "城廻３４０番地１付近",
        "lat": "35.352379",
        "lng": "139.512193",
        "容量（立法メートル）": "50"
    },
    {
        "name": "玉縄出張所第４管区11号",
        "address": "城廻６７３番地２０付近",
        "lat": "35.354298",
        "lng": "139.508043",
        "容量（立法メートル）": "40"
    },
    {
        "name": "玉縄出張所第４管区12号",
        "address": "城廻３２９番地３１付近",
        "lat": "35.358863",
        "lng": "139.50962",
        "容量（立法メートル）": "40"
    },
    {
        "name": "玉縄出張所第４管区13号",
        "address": "城廻６３６番地付近",
        "lat": "35.357184",
        "lng": "139.508128",
        "容量（立法メートル）": "60"
    },
    {
        "name": "玉縄出張所第５管区1号",
        "address": "関谷５１０番地付近",
        "lat": "35.360935",
        "lng": "139.513823",
        "容量（立法メートル）": "40"
    },
    {
        "name": "玉縄出張所第５管区2号",
        "address": "関谷８９８番地１３８付近",
        "lat": "35.361881",
        "lng": "139.511521",
        "容量（立法メートル）": "40"
    },
    {
        "name": "玉縄出張所第５管区3号",
        "address": "関谷８９８番地１４付近",
        "lat": "35.36356",
        "lng": "139.511543",
        "容量（立法メートル）": "40"
    },
    {
        "name": "玉縄出張所第５管区4号",
        "address": "関谷４１３番地１５付近",
        "lat": "35.360388",
        "lng": "139.516675",
        "容量（立法メートル）": "40"
    },
    {
        "name": "玉縄出張所第５管区5号",
        "address": "関谷１１４０番地８付近",
        "lat": "35.36521",
        "lng": "139.501963",
        "容量（立法メートル）": "40"
    },
    {
        "name": "玉縄出張所第５管区6号",
        "address": "関谷３４０番地１８付近",
        "lat": "35.360083",
        "lng": "139.518511",
        "容量（立法メートル）": "40"
    },
    {
        "name": "大船消防署第９管区1号",
        "address": "台二丁目１５番６号付近",
        "lat": "35.347332",
        "lng": "139.52848",
        "容量（立法メートル）": "40"
    },
    {
        "name": "大船消防署第９管区2号",
        "address": "台二丁目１９番１８号付近",
        "lat": "35.344884",
        "lng": "139.528662",
        "容量（立法メートル）": "40"
    },
    {
        "name": "大船消防署第７管区2号",
        "address": "台１８８３番地付近",
        "lat": "35.341085",
        "lng": "139.539285",
        "容量（立法メートル）": "40"
    },
    {
        "name": "大船消防署第７管区4号",
        "address": "台四丁目１４番２２号付近",
        "lat": "35.342516",
        "lng": "139.530596",
        "容量（立法メートル）": "40"
    },
    {
        "name": "大船消防署第７管区5号",
        "address": "台五丁目７番３号付近",
        "lat": "35.341581",
        "lng": "139.534033",
        "容量（立法メートル）": "40"
    },
    {
        "name": "大船消防署第７管区6号",
        "address": "台１４１８番地付近",
        "lat": "35.338455",
        "lng": "139.539836",
        "容量（立法メートル）": "40"
    },
    {
        "name": "大船消防署第７管区7号",
        "address": "台１９７７番地付近",
        "lat": "35.342558",
        "lng": "139.541343",
        "容量（立法メートル）": "40"
    },
    {
        "name": "今泉出張所第１管区1号",
        "address": "岩瀬１３９９番地付近",
        "lat": "35.361258",
        "lng": "139.546663",
        "容量（立法メートル）": "20"
    },
    {
        "name": "今泉出張所第１管区2号",
        "address": "岩瀬一丁目１２番３０号付近",
        "lat": "35.353755",
        "lng": "139.540922",
        "容量（立法メートル）": "40"
    },
    {
        "name": "今泉出張所第１管区3号",
        "address": "岩瀬一丁目２５番５号付近",
        "lat": "35.355238",
        "lng": "139.541891",
        "容量（立法メートル）": "40"
    },
    {
        "name": "今泉出張所第１管区4号",
        "address": "岩瀬一丁目３１番５０号付近",
        "lat": "35.356022",
        "lng": "139.54377",
        "容量（立法メートル）": "40"
    },
    {
        "name": "今泉出張所第２管区1号",
        "address": "岩瀬１５１９番地４付近",
        "lat": "35.352161",
        "lng": "139.54854",
        "容量（立法メートル）": "40"
    },
    {
        "name": "今泉出張所第２管区2号",
        "address": "岩瀬６８４番地付近",
        "lat": "35.352126",
        "lng": "139.545166",
        "容量（立法メートル）": "40"
    },
    {
        "name": "今泉出張所第３管区1号",
        "address": "今泉一丁目３番１７号付近",
        "lat": "35.346823",
        "lng": "139.552293",
        "容量（立法メートル）": "40"
    },
    {
        "name": "今泉出張所第３管区2号",
        "address": "今泉台七丁目１７番地付近",
        "lat": "35.339512",
        "lng": "139.566123",
        "容量（立法メートル）": "40"
    },
    {
        "name": "今泉出張所第３管区3号",
        "address": "今泉三丁目２１番２３号付近",
        "lat": "35.344144",
        "lng": "139.562007",
        "容量（立法メートル）": "40"
    },
    {
        "name": "今泉出張所第３管区4号",
        "address": "今泉台七丁目２６番地付近",
        "lat": "35.339126",
        "lng": "139.5678",
        "容量（立法メートル）": "170"
    },
    {
        "name": "今泉出張所第４管区1号",
        "address": "今泉二丁目１８番２２号付近",
        "lat": "35.345292",
        "lng": "139.552085",
        "容量（立法メートル）": "40"
    },
    {
        "name": "今泉出張所第４管区2号",
        "address": "今泉二丁目２９番１７号付近",
        "lat": "35.343071",
        "lng": "139.550968",
        "容量（立法メートル）": "40"
    },
    {
        "name": "今泉出張所第４管区3号",
        "address": "今泉台二丁目６番２号付近",
        "lat": "35.341713",
        "lng": "139.556673",
        "容量（立法メートル）": "40"
    },
    {
        "name": "今泉出張所第４管区4号",
        "address": "今泉台一丁目１１番３号付近",
        "lat": "35.342553",
        "lng": "139.55492",
        "容量（立法メートル）": "40"
    },
    {
        "name": "今泉出張所第４管区5号",
        "address": "今泉台二丁目１７番２０号付近",
        "lat": "35.339401",
        "lng": "139.559598",
        "容量（立法メートル）": "40"
    },
    {
        "name": "今泉出張所第４管区6号",
        "address": "今泉台四丁目６番１３号付近",
        "lat": "35.338847",
        "lng": "139.557846",
        "容量（立法メートル）": "40"
    },
    {
        "name": "今泉出張所第４管区7号",
        "address": "今泉台一丁目１４番４号付近",
        "lat": "35.343991",
        "lng": "139.556997",
        "容量（立法メートル）": "40"
    },
    {
        "name": "鎌倉消防署第４管区4号",
        "address": "大町五丁目１４番付近",
        "lat": "35.310204",
        "lng": "139.561293",
        "容量（立法メートル）": "40"
    },
    {
        "name": "腰越出張所第３管区4号",
        "address": "鎌倉山二丁目１８番１号付近",
        "lat": "35.316786",
        "lng": "139.520295",
        "容量（立法メートル）": "40"
    },
    {
        "name": "玉縄出張所第５管区7号",
        "address": "関谷１５７４番地付近",
        "lat": "35.357884",
        "lng": "139.503606",
        "容量（立法メートル）": "40"
    },
    {
        "name": "玉縄出張所第１管区4号",
        "address": "玉縄五丁目１５番地５３付近",
        "lat": "35.361621",
        "lng": "139.519962",
        "容量（立法メートル）": "40"
    },
    {
        "name": "大船消防署第８管区1号",
        "address": "山崎２５０７番地１付近",
        "lat": "35.33914",
        "lng": "139.532116",
        "容量（立法メートル）": "40"
    },
    {
        "name": "鎌倉消防署第２管区4号",
        "address": "材木座五丁目８番４０号付近",
        "lat": "35.308062",
        "lng": "139.549265",
        "容量（立法メートル）": "40"
    },
    {
        "name": "玉縄出張所第４管区14号",
        "address": "城廻４６３番地付近",
        "lat": "35.356673",
        "lng": "139.507018",
        "容量（立法メートル）": "40"
    },
    {
        "name": "大船消防署第６管区11号",
        "address": "大船２０８３番地付近",
        "lat": "35.345591",
        "lng": "139.543947",
        "容量（立法メートル）": "40"
    },
    {
        "name": "玉縄出張所第２管区4号",
        "address": "岡本二丁目５５番１９号付近",
        "lat": "35.351944",
        "lng": "139.529059",
        "容量（立法メートル）": "42.9"
    },
    {
        "name": "玉縄出張所第４管区15号",
        "address": "城廻３８４番地２９付近",
        "lat": "35.353663",
        "lng": "139.510469",
        "容量（立法メートル）": "40"
    },
    {
        "name": "大船消防署第３管区2号",
        "address": "小袋谷二丁目２番３１号付近",
        "lat": "35.345745",
        "lng": "139.534346",
        "容量（立法メートル）": "40"
    },
    {
        "name": "鎌倉消防署第８管区6号",
        "address": "笹目町９番１２号付近",
        "lat": "35.316218",
        "lng": "139.541851",
        "容量（立法メートル）": "40"
    },
    {
        "name": "深沢出張所第２管区5号",
        "address": "寺分４１３番地付近",
        "lat": "35.33625",
        "lng": "139.516915",
        "容量（立法メートル）": "40"
    },
    {
        "name": "腰越出張所第１管区5号",
        "address": "腰越五丁目付近",
        "lat": "35.313295",
        "lng": "139.492411",
        "容量（立法メートル）": "61.7"
    },
    {
        "name": "腰越出張所第６管区12号",
        "address": "腰越１６４２番地１０付近",
        "lat": "35.315636",
        "lng": "139.506275",
        "容量（立法メートル）": "40"
    },
    {
        "name": "腰越出張所第２管区3号",
        "address": "腰越一丁目８番１号付近",
        "lat": "35.307882",
        "lng": "139.497791",
        "容量（立法メートル）": "40"
    },
    {
        "name": "鎌倉消防署第７管区４号",
        "address": "由比ヶ浜一丁目８番１８号付近",
        "lat": "35.3161205",
        "lng": "139.5439444",
        "容量（立法メートル）": "65"
    },
    {
        "name": "浄明寺出張所第１管区5号",
        "address": "十二所９７３番地付近",
        "lat": "35.3177515",
        "lng": "139.5773399",
        "容量（立法メートル）": "40"
    },
    {
        "name": "玉縄出張所第５管区8号",
        "address": "関谷３８７番地１７６付近",
        "lat": "35.35948134",
        "lng": "139.5149374",
        "容量（立法メートル）": "60"
    },
    {
        "name": "玉縄出張所第５管区9号",
        "address": "関谷３８７番地１６９付近",
        "lat": "35.36019664",
        "lng": "139.5151258",
        "容量（立法メートル）": "60"
    },
    {
        "name": "玉縄出張所第５管区10号",
        "address": "関谷３８７番地１６９付近",
        "lat": "35.35978255",
        "lng": "139.5156711",
        "容量（立法メートル）": "60"
    },
    {
        "name": "深沢出張所第３管区７号",
        "address": "手広二丁目４０番付近",
        "lat": "35.32468",
        "lng": "139.5084",
        "容量（立法メートル）": "40"
    },
    {
        "name": "玉縄出張所第４管区16号",
        "address": "城廻７２４番地１５付近",
        "lat": "35.205336",
        "lng": "139.303995",
        "容量（立法メートル）": "40"
    },
    {
        "name": "玉縄出張所第４管区17号",
        "address": "城廻６８２番地付近",
        "lat": "35.205636",
        "lng": "139.304291",
        "容量（立法メートル）": "40"
    },
    {
        "name": "玉縄出張所第１管区5号",
        "address": "玉縄二丁目３２番地付近",
        "lat": "35.211638",
        "lng": "139.313854",
        "容量（立法メートル）": "40"
    },
    {
        "name": "鎌倉消防署第１管区1号",
        "address": "由比ガ浜三丁目１１番４８号",
        "lat": "35.183676",
        "lng": "139.324069",
        "容量（立法メートル）": "40"
    }
]